{
"type": "FeatureCollection",
"crs": { "type": "name", "properties": { "name": "urn:ogc:def:crs:OGC:1.3:CRS84" } },
                                                                                
"features": [
{ "type": "Feature", "properties": { "Name": "Mushroom Boulder", "Descriptio": null }, "geometry": { "type": "Point", "coordinates": [ -106.04878073217972, 31.921866406797733 ] } },
{ "type": "Feature", "properties": { "Name": "Loaded with Power", "Descriptio": null }, "geometry": { "type": "Point", "coordinates": [ -106.04286696993385, 31.922475845276121 ] } },
{ "type": "Feature", "properties": { "Name": "Lower Lost Boulders", "Descriptio": null }, "geometry": { "type": "Point", "coordinates": [ -106.04182937262307, 31.921864427460978 ] } },
{ "type": "Feature", "properties": { "Name": "Juniper Junction", "Descriptio": null }, "geometry": { "type": "Point", "coordinates": [ -106.04468916017125, 31.919851518105293 ] } },
{ "type": "Feature", "properties": { "Name": "Big Time", "Descriptio": null }, "geometry": { "type": "Point", "coordinates": [ -106.04364185037583, 31.922141822266955 ] } },
{ "type": "Feature", "properties": { "Name": "Above the Ranch House", "Descriptio": null }, "geometry": { "type": "Point", "coordinates": [ -106.04282145206318, 31.924905310219408 ] } },
{ "type": "Feature", "properties": { "Name": "The Gym (area)", "Descriptio": null }, "geometry": { "type": "Point", "coordinates": [ -106.04372619463305, 31.922593064858749 ] } },
{ "type": "Feature", "properties": { "Name": "The Terminator", "Descriptio": null }, "geometry": { "type": "Point", "coordinates": [ -106.04472554836882, 31.920486637971699 ] } },
{ "type": "Feature", "properties": { "Name": "Small Potatoes", "Descriptio": null }, "geometry": { "type": "Point", "coordinates": [ -106.04339393127243, 31.922395528670549 ] } },
{ "type": "Feature", "properties": { "Name": "End Loop Boulders", "Descriptio": null }, "geometry": { "type": "Point", "coordinates": [ -106.04859134632571, 31.919397996401322 ] } },
{ "type": "Feature", "properties": { "Name": "The Morgue", "Descriptio": null }, "geometry": { "type": "Point", "coordinates": [ -106.04491105402796, 31.925644532441542 ] } },
{ "type": "Feature", "properties": { "Name": "Stanage on Holiday", "Descriptio": null }, "geometry": { "type": "Point", "coordinates": [ -106.04695644026887, 31.924849501224003 ] } },
{ "type": "Feature", "properties": { "Name": "Summit Boulders", "Descriptio": null }, "geometry": { "type": "Point", "coordinates": [ -106.04730249425751, 31.922580807287396 ] } },
{ "type": "Feature", "properties": { "Name": "Upper Lost Boulders", "Descriptio": null }, "geometry": { "type": "Point", "coordinates": [ -106.04261720863258, 31.92182978876383 ] } },
{ "type": "Feature", "properties": { "Name": "The New Meadow", "Descriptio": null }, "geometry": { "type": "Point", "coordinates": [ -106.0439722857369, 31.923202181689362 ] } },
{ "type": "Feature", "properties": { "Name": "Lunch Rocks", "Descriptio": null }, "geometry": { "type": "Point", "coordinates": [ -106.04783828253396, 31.924205984039446 ] } },
{ "type": "Feature", "properties": { "Name": "Deliverance Boulders", "Descriptio": null }, "geometry": { "type": "Point", "coordinates": [ -106.04870855973336, 31.921600039268316 ] } },
{ "type": "Feature", "properties": { "Name": "Babyface", "Descriptio": null }, "geometry": { "type": "Point", "coordinates": [ -106.04552469503855, 31.921807845740343 ] } },
{ "type": "Feature", "properties": { "Name": "The Asylum", "Descriptio": null }, "geometry": { "type": "Point", "coordinates": [ -106.04629676026043, 31.925412970820521 ] } },
{ "type": "Feature", "properties": { "Name": "Micheal Kenyon", "Descriptio": null }, "geometry": { "type": "Point", "coordinates": [ -106.04378342211282, 31.925765684599035 ] } },
{ "type": "Feature", "properties": { "Name": "Stegosaur", "Descriptio": null }, "geometry": { "type": "Point", "coordinates": [ -106.04333163292661, 31.922824490693603 ] } },
{ "type": "Feature", "properties": { "Name": "Sign of the Cross", "Descriptio": null }, "geometry": { "type": "Point", "coordinates": [ -106.04346426264657, 31.924520782476367 ] } },
{ "type": "Feature", "properties": { "Name": "Groove Wall", "Descriptio": null }, "geometry": { "type": "Point", "coordinates": [ -106.0445842713078, 31.920211717593315 ] } },
{ "type": "Feature", "properties": { "Name": "Ghetto Simulator", "Descriptio": null }, "geometry": { "type": "Point", "coordinates": [ -106.04470258518435, 31.919860690139046 ] } },
{ "type": "Feature", "properties": { "Name": "Mussypotamia", "Descriptio": null }, "geometry": { "type": "Point", "coordinates": [ -106.0483015017473, 31.919813124646186 ] } },
{ "type": "Feature", "properties": { "Name": "Sign of the Choss", "Descriptio": null }, "geometry": { "type": "Point", "coordinates": [ -106.04361415278677, 31.925468424142721 ] } },
{ "type": "Feature", "properties": { "Name": "Mopboys", "Descriptio": null }, "geometry": { "type": "Point", "coordinates": [ -106.0455026992616, 31.923344939816307 ] } },
{ "type": "Feature", "properties": { "Name": "Split Boulder", "Descriptio": null }, "geometry": { "type": "Point", "coordinates": [ -106.04812750347679, 31.922505365911491 ] } },
{ "type": "Feature", "properties": { "Name": "Nachoman", "Descriptio": null }, "geometry": { "type": "Point", "coordinates": [ -106.04764244801527, 31.924687135152645 ] } },
{ "type": "Feature", "properties": { "Name": "Laguna Corridor", "Descriptio": null }, "geometry": { "type": "Point", "coordinates": [ -106.04601948168703, 31.924523147447726 ] } },
{ "type": "Feature", "properties": { "Name": "Dab", "Descriptio": null }, "geometry": { "type": "Point", "coordinates": [ -106.0476965990182, 31.923023584562138 ] } },
{ "type": "Feature", "properties": { "Name": "Warm Up Area", "Descriptio": null }, "geometry": { "type": "Point", "coordinates": [ -106.04502735346702, 31.926105111521277 ] } },
{ "type": "Feature", "properties": { "Name": "Before the Mushroom Boulder", "Descriptio": null }, "geometry": { "type": "Point", "coordinates": [ -106.04841817339542, 31.922203360585105 ] } },
{ "type": "Feature", "properties": { "Name": "Elm Street", "Descriptio": null }, "geometry": { "type": "Point", "coordinates": [ -106.04504590349421, 31.92208594451094 ] } },
{ "type": "Feature", "properties": { "Name": "Icarus Boulders", "Descriptio": null }, "geometry": { "type": "Point", "coordinates": [ -106.04156120684338, 31.920649426027307 ] } },
{ "type": "Feature", "properties": { "Name": "Little Bitty Adolescent Titties", "Descriptio": null }, "geometry": { "type": "Point", "coordinates": [ -106.04177501134613, 31.922741625401869 ] } },
{ "type": "Feature", "properties": { "Name": "Double Vision", "Descriptio": null }, "geometry": { "type": "Point", "coordinates": [ -106.04556614418908, 31.921007435664126 ] } }
]
}
