{
"type": "FeatureCollection",
"crs": { "type": "name", "properties": { "name": "urn:ogc:def:crs:OGC:1.3:CRS84" } },
                                                                                
"features": [
{ "type": "Feature", "properties": { "NAME": "Warmup (area)", "DESCRIPTIO": null, "LAYER_ID": 1.000000, "LAYER": "OUTPUTLAYER" }, "geometry": { "type": "Point", "coordinates": [ -106.04504684085947, 31.926023086614784 ] } },
{ "type": "Feature", "properties": { "NAME": "Warmup (area)", "DESCRIPTIO": null, "LAYER_ID": 2.000000, "LAYER": "OUTPUTLAYER" }, "geometry": { "type": "Point", "coordinates": [ -106.04504684085947, 31.926023086614784 ] } },
{ "type": "Feature", "properties": { "NAME": "Upper Lost Boulders", "DESCRIPTIO": null, "LAYER_ID": 3.000000, "LAYER": "OUTPUTLAYER" }, "geometry": { "type": "Point", "coordinates": [ -106.04261720863263, 31.921829788763858 ] } },
{ "type": "Feature", "properties": { "NAME": "The Terminator", "DESCRIPTIO": null, "LAYER_ID": 4.000000, "LAYER": "OUTPUTLAYER" }, "geometry": { "type": "Point", "coordinates": [ -106.04472554836889, 31.920486637971702 ] } },
{ "type": "Feature", "properties": { "NAME": "The New Meadow", "DESCRIPTIO": null, "LAYER_ID": 5.000000, "LAYER": "OUTPUTLAYER" }, "geometry": { "type": "Point", "coordinates": [ -106.04397228573691, 31.923202181689348 ] } },
{ "type": "Feature", "properties": { "NAME": "The Morgue", "DESCRIPTIO": null, "LAYER_ID": 6.000000, "LAYER": "OUTPUTLAYER" }, "geometry": { "type": "Point", "coordinates": [ -106.04491105402802, 31.925644532441535 ] } },
{ "type": "Feature", "properties": { "NAME": "The Gym (area)", "DESCRIPTIO": null, "LAYER_ID": 7.000000, "LAYER": "OUTPUTLAYER" }, "geometry": { "type": "Point", "coordinates": [ -106.04372619463305, 31.922593064858759 ] } },
{ "type": "Feature", "properties": { "NAME": "The Asylum", "DESCRIPTIO": null, "LAYER_ID": 8.000000, "LAYER": "OUTPUTLAYER" }, "geometry": { "type": "Point", "coordinates": [ -106.04629676026052, 31.925412970820542 ] } },
{ "type": "Feature", "properties": { "NAME": "Summit Boulders", "DESCRIPTIO": null, "LAYER_ID": 9.000000, "LAYER": "OUTPUTLAYER" }, "geometry": { "type": "Point", "coordinates": [ -106.04653373450179, 31.922009259952208 ] } },
{ "type": "Feature", "properties": { "NAME": "Stegosaur", "DESCRIPTIO": null, "LAYER_ID": 10.000000, "LAYER": "OUTPUTLAYER" }, "geometry": { "type": "Point", "coordinates": [ -106.04333163292659, 31.9228244906936 ] } },
{ "type": "Feature", "properties": { "NAME": "Stanage on Holiday", "DESCRIPTIO": null, "LAYER_ID": 11.000000, "LAYER": "OUTPUTLAYER" }, "geometry": { "type": "Point", "coordinates": [ -106.0469564402689, 31.924849501224006 ] } },
{ "type": "Feature", "properties": { "NAME": "Split Boulder", "DESCRIPTIO": null, "LAYER_ID": 12.000000, "LAYER": "OUTPUTLAYER" }, "geometry": { "type": "Point", "coordinates": [ -106.04812750347674, 31.922505365911491 ] } },
{ "type": "Feature", "properties": { "NAME": "Small Potatoes", "DESCRIPTIO": null, "LAYER_ID": 13.000000, "LAYER": "OUTPUTLAYER" }, "geometry": { "type": "Point", "coordinates": [ -106.0433939312725, 31.922395528670592 ] } },
{ "type": "Feature", "properties": { "NAME": "Sign of the Cross", "DESCRIPTIO": null, "LAYER_ID": 14.000000, "LAYER": "OUTPUTLAYER" }, "geometry": { "type": "Point", "coordinates": [ -106.04338310010147, 31.924604789838 ] } },
{ "type": "Feature", "properties": { "NAME": "Sign of the Choss", "DESCRIPTIO": null, "LAYER_ID": 15.000000, "LAYER": "OUTPUTLAYER" }, "geometry": { "type": "Point", "coordinates": [ -106.04356367779025, 31.925412089248841 ] } },
{ "type": "Feature", "properties": { "NAME": "Nachoman", "DESCRIPTIO": null, "LAYER_ID": 16.000000, "LAYER": "OUTPUTLAYER" }, "geometry": { "type": "Point", "coordinates": [ -106.04764244801527, 31.924687135152627 ] } },
{ "type": "Feature", "properties": { "NAME": "Mussypotamia", "DESCRIPTIO": null, "LAYER_ID": 17.000000, "LAYER": "OUTPUTLAYER" }, "geometry": { "type": "Point", "coordinates": [ -106.04830150174726, 31.919813124646176 ] } },
{ "type": "Feature", "properties": { "NAME": "Mushroom Boulder", "DESCRIPTIO": null, "LAYER_ID": 18.000000, "LAYER": "OUTPUTLAYER" }, "geometry": { "type": "Point", "coordinates": [ -106.04878073217972, 31.921866406797736 ] } },
{ "type": "Feature", "properties": { "NAME": "Mopboys", "DESCRIPTIO": null, "LAYER_ID": 19.000000, "LAYER": "OUTPUTLAYER" }, "geometry": { "type": "Point", "coordinates": [ -106.04550269926162, 31.923344939816307 ] } },
{ "type": "Feature", "properties": { "NAME": "Micheal Kenyon", "DESCRIPTIO": null, "LAYER_ID": 20.000000, "LAYER": "OUTPUTLAYER" }, "geometry": { "type": "Point", "coordinates": [ -106.04378342211282, 31.925765684599035 ] } },
{ "type": "Feature", "properties": { "NAME": "Lunch Rocks", "DESCRIPTIO": null, "LAYER_ID": 21.000000, "LAYER": "OUTPUTLAYER" }, "geometry": { "type": "Point", "coordinates": [ -106.04783828253393, 31.924205984039428 ] } },
{ "type": "Feature", "properties": { "NAME": "Lower Lost Boulders", "DESCRIPTIO": null, "LAYER_ID": 22.000000, "LAYER": "OUTPUTLAYER" }, "geometry": { "type": "Point", "coordinates": [ -106.0418293726231, 31.921864427460974 ] } },
{ "type": "Feature", "properties": { "NAME": "Loaded with Power", "DESCRIPTIO": null, "LAYER_ID": 23.000000, "LAYER": "OUTPUTLAYER" }, "geometry": { "type": "Point", "coordinates": [ -106.04286696993384, 31.922475845276125 ] } },
{ "type": "Feature", "properties": { "NAME": "Little Bitty Adolescent Titties", "DESCRIPTIO": null, "LAYER_ID": 24.000000, "LAYER": "OUTPUTLAYER" }, "geometry": { "type": "Point", "coordinates": [ -106.04154723518147, 31.922685914078745 ] } },
{ "type": "Feature", "properties": { "NAME": "Laguna Corridor", "DESCRIPTIO": null, "LAYER_ID": 25.000000, "LAYER": "OUTPUTLAYER" }, "geometry": { "type": "Point", "coordinates": [ -106.046019481687, 31.924523147447726 ] } },
{ "type": "Feature", "properties": { "NAME": "Juniper Junction", "DESCRIPTIO": null, "LAYER_ID": 26.000000, "LAYER": "OUTPUTLAYER" }, "geometry": { "type": "Point", "coordinates": [ -106.04468916017119, 31.919851518105315 ] } },
{ "type": "Feature", "properties": { "NAME": "Icarus Boulders", "DESCRIPTIO": null, "LAYER_ID": 27.000000, "LAYER": "OUTPUTLAYER" }, "geometry": { "type": "Point", "coordinates": [ -106.0415612068434, 31.920649426027314 ] } },
{ "type": "Feature", "properties": { "NAME": "Groove Wall", "DESCRIPTIO": null, "LAYER_ID": 28.000000, "LAYER": "OUTPUTLAYER" }, "geometry": { "type": "Point", "coordinates": [ -106.04458427130781, 31.920211717593322 ] } },
{ "type": "Feature", "properties": { "NAME": "Ghetto Simulator", "DESCRIPTIO": null, "LAYER_ID": 29.000000, "LAYER": "OUTPUTLAYER" }, "geometry": { "type": "Point", "coordinates": [ -106.04500231113956, 31.920259639387954 ] } },
{ "type": "Feature", "properties": { "NAME": "End Loop Boulders", "DESCRIPTIO": null, "LAYER_ID": 30.000000, "LAYER": "OUTPUTLAYER" }, "geometry": { "type": "Point", "coordinates": [ -106.04859134632575, 31.919397996401329 ] } },
{ "type": "Feature", "properties": { "NAME": "Elm Street", "DESCRIPTIO": null, "LAYER_ID": 31.000000, "LAYER": "OUTPUTLAYER" }, "geometry": { "type": "Point", "coordinates": [ -106.04504590349426, 31.922085944510922 ] } },
{ "type": "Feature", "properties": { "NAME": "Double Vision", "DESCRIPTIO": null, "LAYER_ID": 32.000000, "LAYER": "OUTPUTLAYER" }, "geometry": { "type": "Point", "coordinates": [ -106.04556614418911, 31.921007435664126 ] } },
{ "type": "Feature", "properties": { "NAME": "Deliverance Boulders", "DESCRIPTIO": null, "LAYER_ID": 33.000000, "LAYER": "OUTPUTLAYER" }, "geometry": { "type": "Point", "coordinates": [ -106.0487085597333, 31.921600039268256 ] } },
{ "type": "Feature", "properties": { "NAME": "Dab", "DESCRIPTIO": null, "LAYER_ID": 34.000000, "LAYER": "OUTPUTLAYER" }, "geometry": { "type": "Point", "coordinates": [ -106.04769659901815, 31.923023584562127 ] } },
{ "type": "Feature", "properties": { "NAME": "Big Time", "DESCRIPTIO": null, "LAYER_ID": 35.000000, "LAYER": "OUTPUTLAYER" }, "geometry": { "type": "Point", "coordinates": [ -106.04364185037583, 31.922141822266976 ] } },
{ "type": "Feature", "properties": { "NAME": "Before the Mushroom Boulder", "DESCRIPTIO": null, "LAYER_ID": 36.000000, "LAYER": "OUTPUTLAYER" }, "geometry": { "type": "Point", "coordinates": [ -106.04831727702721, 31.922026489347271 ] } },
{ "type": "Feature", "properties": { "NAME": "Babyface", "DESCRIPTIO": null, "LAYER_ID": 37.000000, "LAYER": "OUTPUTLAYER" }, "geometry": { "type": "Point", "coordinates": [ -106.04552469503851, 31.921807845740314 ] } },
{ "type": "Feature", "properties": { "NAME": "Above the Ranch House", "DESCRIPTIO": null, "LAYER_ID": 38.000000, "LAYER": "OUTPUTLAYER" }, "geometry": { "type": "Point", "coordinates": [ -106.042758866995, 31.925120430170235 ] } }
]
}
